,City,Country,Lat,Lng,Max Temp,Humidity,Cloudiness,Wind Speed,Current Description
0,Lafiagi,NG,8.8667,5.4167,99.75,37,28,4.41,scattered clouds
1,Katsuura,JP,35.1333,140.3,69.12,78,100,9.89,overcast clouds
2,Mataura,NZ,-46.1927,168.8643,33.17,95,5,2.93,clear sky
3,Belmonte,BR,-15.8631,-38.8828,84.7,64,70,11.88,broken clouds
4,Cidreira,BR,-30.1811,-50.2056,55.06,73,90,23.73,overcast clouds
5,Saint-Philippe,RE,-21.3585,55.7679,71.19,85,84,14.47,light rain
6,Ushuaia,AR,-54.8,-68.3,40.62,87,75,25.32,broken clouds
7,Atuona,PF,-9.8,-139.0333,80.01,76,32,18.81,scattered clouds
8,Ancud,CL,-41.8697,-73.8203,51.42,84,100,17.87,light rain
9,Hithadhoo,MV,-0.6,73.0833,84.74,71,100,15.19,overcast clouds
10,Vardo,NO,70.3705,31.1107,41.2,61,3,7.9,clear sky
11,Manta,EC,-0.95,-80.7333,74.98,83,90,8.05,overcast clouds
12,Padang,ID,-0.9492,100.3543,78.85,86,86,3,overcast clouds
13,Clyde River,CA,70.4692,-68.5914,19.63,93,90,31.07,overcast clouds
14,Iqaluit,CA,63.7506,-68.5145,19.13,79,75,3,broken clouds
15,Nabire,ID,-3.3667,135.4833,76.42,90,97,3.4,overcast clouds
16,Zhaotong,CN,27.3167,103.7167,55.24,86,100,4.99,overcast clouds
17,Mahebourg,MU,-20.4081,57.7,72.25,88,75,12.66,broken clouds
18,Vaini,TO,-21.2,-175.2,71.76,88,75,6.91,broken clouds
19,Cape Town,ZA,-33.9258,18.4232,70.12,78,20,8.9,few clouds
20,Susehri,TR,40.1644,38.0867,69.01,56,14,9.89,few clouds
21,Barrow,US,71.2906,-156.7887,28.42,80,90,17.27,overcast clouds
22,Rikitea,PF,-23.1203,-134.9692,74.93,83,71,11.25,light rain
23,San Bartolome De Tirajana,ES,27.9248,-15.5733,64.87,58,40,16.64,scattered clouds
24,Severo-Kurilsk,RU,50.6789,156.125,39.31,84,100,15.97,overcast clouds
25,Kondinskoye,RU,59.6481,67.41,69.4,56,97,8.57,overcast clouds
26,Cerrito,CO,6.8432,-72.694,56.59,71,62,2.33,broken clouds
27,Hermanus,ZA,-34.4187,19.2345,68.9,67,100,14.63,overcast clouds
28,Albany,US,42.6001,-73.9662,65.62,47,76,4.92,broken clouds
29,Petatlan,MX,17.5167,-101.2667,76.8,42,3,1.03,clear sky
30,Ihosy,MG,-22.4,46.1167,68.56,50,76,6.38,broken clouds
31,Pevek,RU,69.7008,170.3133,21,89,100,5.28,overcast clouds
32,Bilma,NE,18.6853,12.9164,106.23,5,0,5.19,clear sky
33,Saint-Georges,GD,12.0564,-61.7485,83.88,74,75,24.16,broken clouds
34,Punta Arenas,CL,-53.15,-70.9167,39.31,76,75,14.99,broken clouds
35,Narsaq,GL,60.9167,-46.05,44.82,55,100,10.09,light rain
36,Waipawa,NZ,-41.4122,175.5153,48.83,79,100,16.8,overcast clouds
37,Nemuro,JP,43.3236,145.575,43.57,94,100,3.13,overcast clouds
38,Mahibadhoo,MV,3.7833,72.9667,83.75,75,20,18.88,few clouds
39,Ketchikan,US,55.3422,-131.6461,48.67,81,90,5.75,overcast clouds
40,Faya,SA,18.3851,42.4509,78.91,25,25,11.23,scattered clouds
41,Arraial Do Cabo,BR,-22.9661,-42.0278,78.76,61,75,8.05,broken clouds
42,Ponta Delgada,PT,37.7333,-25.6667,66.92,59,20,9.22,few clouds
43,Fukue,JP,32.6881,128.8419,66.36,76,31,14.16,scattered clouds
44,Wendo,ET,6.6,38.4167,68.13,82,75,3.2,light rain
45,Hobart,AU,-42.8794,147.3294,56.12,83,89,1.01,overcast clouds
46,Abu Kamal,SY,34.4506,40.9171,85.14,22,56,11.41,broken clouds
47,Dikson,RU,73.5069,80.5464,28.83,80,100,14.79,overcast clouds
48,Lac Du Bonnet,CA,50.2536,-96.0612,57.74,88,99,12.21,overcast clouds
49,Aksu,CN,41.1231,80.2644,75.76,17,100,6.6,overcast clouds
50,Srandakan,ID,-7.9386,110.2506,77.68,90,34,4.79,scattered clouds
51,Georgetown,MY,5.4112,100.3354,85.95,76,20,4.99,few clouds
52,Bluff,NZ,-46.6,168.3333,41.52,76,10,8.88,clear sky
53,Kapaa,US,22.0752,-159.319,71.58,80,1,3.27,clear sky
54,Kodiak,US,57.79,-152.4072,44.1,81,0,7.23,clear sky
55,Kichmengskiy Gorodok,RU,59.9816,45.7854,61.11,57,62,13.24,broken clouds
56,Winslow,US,35.0242,-110.6974,54.27,16,1,6.91,clear sky
57,Severomuysk,RU,56.1481,113.4267,23.04,85,53,4.94,broken clouds
58,Sieradz,PL,51.5958,18.7302,70.79,52,94,13.13,overcast clouds
59,New Norfolk,AU,-42.7826,147.0587,55.76,66,80,3.04,broken clouds
60,Guangyuan,CN,32.442,105.823,65.05,84,96,2.71,overcast clouds
61,Busselton,AU,-33.65,115.3333,48.09,66,98,7.49,overcast clouds
62,Lorengau,PG,-2.0226,147.2712,81.23,83,75,6.13,moderate rain
63,Puerto Leguizamo,CO,-0.1934,-74.7819,72.64,100,99,0.87,overcast clouds
64,Inirida,CO,3.8653,-67.9239,82.92,82,72,1.61,broken clouds
65,Malbork,PL,54.0359,19.0266,67.87,58,74,11.12,broken clouds
66,Avarua,CK,-21.2078,-159.775,80.65,89,20,12.66,few clouds
67,Lida,BY,53.8833,25.2997,62.55,49,12,4.61,few clouds
68,Butaritari,KI,3.0707,172.7902,78.57,90,100,8.99,moderate rain
69,Hofn,IS,64.2539,-15.2082,43.07,69,92,11.43,overcast clouds
70,Mendeleyevsk,RU,55.9082,52.2905,74.44,67,92,6.44,overcast clouds
71,Kaitangata,NZ,-46.2817,169.8464,44.92,80,24,2.3,few clouds
72,Hirara,JP,24.8,125.2833,81.36,82,9,6.6,clear sky
73,Laguna,US,38.421,-121.4238,64.22,75,1,3,clear sky
74,Longyearbyen,SJ,78.2186,15.6401,30.04,64,40,9.22,scattered clouds
75,Norman Wells,CA,65.282,-126.8329,44.64,81,40,5.75,scattered clouds
76,Tuktoyaktuk,CA,69.4541,-133.0374,28.4,93,90,11.5,overcast clouds
77,Port Hardy,CA,50.6996,-127.4199,48.38,100,90,2.3,overcast clouds
78,Yumen,CN,40.2833,97.2,65.08,13,47,9.37,scattered clouds
79,Yellowknife,CA,62.456,-114.3525,35.33,64,20,3,few clouds
80,Port Alfred,ZA,-33.5906,26.891,81.52,35,58,10.67,broken clouds
81,Scarborough,GB,54.2797,-0.4044,60.84,69,91,8.25,overcast clouds
82,Pemangkat,ID,1.1667,108.9667,81.7,76,38,2.28,scattered clouds
83,Buin,CL,-33.7333,-70.75,59.32,30,0,1.23,clear sky
84,Tautira,PF,-17.7333,-149.15,77.02,76,55,6.15,broken clouds
85,Codrington,AU,-38.2667,141.9667,67.05,46,100,23.11,overcast clouds
86,Qaanaaq,GL,77.484,-69.3632,28.47,71,20,8.9,few clouds
87,Topsham,US,43.9276,-69.9759,62.1,52,0,1.01,clear sky
88,East London,ZA,-33.0153,27.9116,83.34,34,0,6.91,clear sky
89,Katobu,ID,-4.9408,122.5276,75,93,40,4.16,scattered clouds
90,Nantucket,US,41.2835,-70.0995,63.25,47,1,10.36,clear sky
91,Pierre,US,44.3683,-100.351,61,63,1,12.66,clear sky
92,Westport,US,41.1415,-73.3579,66.06,57,75,1.01,broken clouds
93,Ribeira Grande,PT,38.5167,-28.7,64.8,68,20,12.66,few clouds
94,Rohnert Park,US,38.3396,-122.7011,58.62,78,90,1.01,overcast clouds
95,Karoi,ZW,-16.8099,29.6925,72.18,31,3,3.94,clear sky
96,Palmer,US,42.1584,-72.3287,64.94,53,75,4.21,broken clouds
97,Isiolo,KE,0.3546,37.5822,77.76,57,85,13.91,overcast clouds
98,Jamestown,US,42.097,-79.2353,67.33,65,75,4,broken clouds
99,Olinda,BR,-8.0089,-34.8553,82.13,65,40,11.99,scattered clouds
100,Doka,SD,13.5167,35.7667,103.87,7,5,8.43,clear sky
101,Santa Maria Do Suacui,BR,-18.1903,-42.4142,85.69,41,8,2.93,clear sky
102,Luderitz,NA,-26.6481,15.1594,73.42,45,89,4.36,overcast clouds
103,Chokurdakh,RU,70.6333,147.9167,24.67,100,67,6.53,broken clouds
104,Kenora,CA,49.8167,-94.4337,52.77,93,90,13.8,overcast clouds
105,Moratuwa,LK,6.773,79.8816,81.41,82,100,16.6,heavy intensity rain
106,Gloversville,US,43.0528,-74.3438,64.11,48,1,4,clear sky
107,Porlamar,VE,10.958,-63.8491,81.5,73,85,18.95,overcast clouds
108,Kardla,EE,58.9978,22.7492,55.38,76,75,6.91,broken clouds
109,Bethel,US,41.3712,-73.414,64.51,63,90,11.5,overcast clouds
110,Lebu,CL,-37.6167,-73.65,55.69,86,97,2.68,overcast clouds
111,Castro,BR,-24.7911,-50.0119,54.61,54,7,9.26,clear sky
112,Chuy,UY,-33.6971,-53.4616,56.59,70,17,15.52,few clouds
113,Deputatskiy,RU,69.3,139.9,33.19,67,6,3.62,clear sky
114,Kaoma,ZM,-14.7833,24.8,78.57,28,0,9.37,clear sky
115,Tiksi,RU,71.6872,128.8694,34.45,76,100,9.98,overcast clouds
116,Sebinkarahisar,TR,40.2883,38.4236,66.11,56,3,6.76,clear sky
117,Washington,US,47.5001,-120.5015,56.62,67,100,7,overcast clouds
118,Mar Del Plata,AR,-38.0023,-57.5575,58.08,31,0,11.99,clear sky
119,Caravelas,BR,-17.7125,-39.2481,86.02,52,41,10,scattered clouds
120,Watsa,CD,3.0372,29.5355,79.56,61,47,4.79,scattered clouds
121,Canico,PT,32.6333,-16.85,74.71,66,40,14.83,scattered clouds
122,Astana,KZ,51.1801,71.446,84.15,28,0,5.17,clear sky
123,Whitehorse,CA,60.7161,-135.0538,39.97,93,90,5.01,overcast clouds
124,Praia Da Vitoria,PT,38.7333,-27.0667,66.45,59,40,12.84,scattered clouds
125,Saint-Louis,SN,16.3333,-15,101.71,13,0,8.77,clear sky
126,Upernavik,GL,72.7868,-56.1549,30.24,70,51,7.54,broken clouds
127,Nikolskoye,RU,59.7035,30.7861,60.69,53,15,11.7,few clouds
128,Cascais,PT,38.6979,-9.4215,71.46,52,40,13,scattered clouds
129,West Bay,KY,19.3667,-81.4167,84.27,80,75,5.01,broken clouds
130,Canaries,ES,28,-15.5,67.96,61,40,16.87,scattered clouds
131,Tual,ID,-5.6667,132.75,82.45,76,100,16.98,overcast clouds
132,Haifa,IL,32.8156,34.9892,84.61,61,20,10.36,few clouds
133,Atar,MR,20.5169,-13.0499,105.31,12,0,10.33,clear sky
134,North Salt Lake,US,40.8486,-111.9069,53.24,67,20,1.01,few clouds
135,Winnemucca,US,40.973,-117.7357,49.1,48,75,7.27,broken clouds
136,Tarauaca,BR,-8.1614,-70.7656,73.47,99,100,2.86,overcast clouds
137,Brae,GB,60.3964,-1.353,48.11,86,100,20.22,overcast clouds
138,Toba Tek Singh,PK,30.9743,72.4827,96.71,18,0,4.7,clear sky
139,Northam,GB,51.0333,-4.2167,52.34,83,27,25.68,light rain
140,Nacala,MZ,-14.5428,40.6728,71.92,86,76,12.06,light rain
141,Grindavik,IS,63.8424,-22.4338,50.56,69,75,15.21,broken clouds
142,Faanui,PF,-16.4833,-151.75,81.19,72,8,4.72,clear sky
143,Saint Marys,US,30.7305,-81.5465,81.12,67,1,8.01,clear sky
144,Sitka,US,57.0531,-135.33,46.29,76,90,9.22,overcast clouds
145,Carnarvon,AU,-24.8667,113.6333,60.87,77,40,10.36,scattered clouds
146,Dzhebariki-Khaya,RU,62.2167,135.8,44.58,79,100,4.27,overcast clouds
147,Bredasdorp,ZA,-34.5322,20.0403,67.32,67,100,4.97,overcast clouds
148,Montemor-O-Novo,PT,38.6481,-8.2145,71.01,44,89,10.45,overcast clouds
149,Puerto Ayora,EC,-0.7393,-90.3518,78.76,89,87,5.99,overcast clouds
150,Camocim,BR,-2.9022,-40.8411,86.22,62,88,12.12,overcast clouds
151,Kiunga,PG,-6.1219,141.2906,74.01,99,100,4.23,heavy intensity rain
152,Minab,IR,27.1467,57.0801,92.7,41,0,9.69,clear sky
153,Trois-Rivieres,CA,46.3501,-72.5491,58.75,49,1,4.61,clear sky
154,Fort Saint James,CA,54.4333,-124.25,47.3,64,90,4.88,overcast clouds
155,Los Llanos De Aridane,ES,28.6585,-17.9182,67.75,64,75,15.41,broken clouds
156,Ponta Do Sol,PT,32.6667,-17.1,74.71,59,89,4.03,overcast clouds
157,Mayo,US,38.8876,-76.5119,67.98,67,90,7,overcast clouds
158,Pacific Grove,US,36.6177,-121.9166,54.57,90,90,5.99,overcast clouds
159,Kaberamaido,UG,1.7389,33.1594,79.02,64,30,3.22,light rain
160,Hualmay,PE,-11.0964,-77.6139,65.93,82,48,4.25,scattered clouds
161,Praya,CV,14.9215,-23.5087,81.14,54,20,20.71,few clouds
162,Batagay-Alyta,RU,67.8006,130.4114,36.5,60,26,4.47,scattered clouds
163,Geraldton,AU,-28.7667,114.6,57.61,66,75,12.88,light rain
164,Poli,TZ,-3.3333,36.8,66.06,63,49,4.12,scattered clouds
165,Rio Gallegos,AR,-51.6226,-69.2181,37.45,75,40,13.8,scattered clouds
166,Sumy,UA,50.9216,34.8003,52.54,93,100,14.41,moderate rain
167,Chyhyryn,UA,49.0838,32.6555,55.02,94,100,24.49,overcast clouds
168,Rey Bouba,CM,8.6724,14.1786,104.2,20,99,5.06,overcast clouds
169,Anahuac,MX,27.2333,-100.15,76.5,79,85,15.12,overcast clouds
170,Leningradskiy,RU,69.3833,178.4167,23.47,92,56,6.35,broken clouds
171,Victoria,HK,22.2855,114.1577,86.32,84,100,4.83,overcast clouds
172,San Patricio,US,28.017,-97.5169,81.07,82,25,10.56,scattered clouds
173,Garowe,SO,8.4054,48.4845,88.2,37,94,9.66,overcast clouds
174,Hobyo,SO,5.3505,48.5268,81.3,70,73,23.15,light rain
175,Khuzdar,PK,27.7384,66.6434,92.57,9,43,11.12,scattered clouds
176,Fernan-Nunez,ES,37.6884,-4.7247,82.29,19,0,5.53,clear sky
177,Two Hills,CA,53.7169,-111.7518,52.16,95,100,12.26,light rain
178,Kahului,US,20.8947,-156.47,72.66,83,1,0,clear sky
179,Palauig,PH,15.435,119.9045,81.99,76,23,4.29,few clouds
180,Payo,ID,-3.7508,103.6372,75.24,94,25,2.75,scattered clouds
181,Jizan,SA,17.3333,42.6667,94.14,25,0,13.04,clear sky
182,Pedernales,DO,18.0384,-71.744,84.22,63,81,3.18,broken clouds
183,Fortuna,US,40.5982,-124.1573,51.37,63,90,1.99,overcast clouds
184,Hilo,US,19.7297,-155.09,81.28,88,90,4.61,light rain
185,Seoul,KR,37.5683,126.9778,60.31,60,3,4.27,clear sky
186,Puerto Baquerizo Moreno,EC,-0.9,-89.6,76.19,78,40,11.5,scattered clouds
187,Eureka,US,40.8021,-124.1637,51.64,89,49,1.01,scattered clouds
188,Souillac,MU,-20.5167,57.5167,72.36,74,75,14.03,broken clouds
189,Indiana,US,40.0003,-86.2503,80.31,65,75,0,broken clouds
190,Lagoa,PT,39.05,-27.9833,60.58,63,100,9.78,overcast clouds
191,North Bend,US,43.4065,-124.2243,54.99,83,90,6.91,overcast clouds
192,Tombouctou,ML,20,-3,109.4,11,31,2.73,scattered clouds
193,Calvinia,ZA,-31.4707,19.776,74.37,24,96,17.16,overcast clouds
194,Klaksvik,FO,62.2266,-6.589,50.92,85,10,9.48,clear sky
195,Safford,US,32.834,-109.7076,71.11,9,1,3.44,clear sky
196,Hovd,MN,48.0056,91.6419,69.39,25,100,15.7,overcast clouds
197,Chernyakhovsk,RU,54.6335,21.8156,60.85,68,81,7.38,broken clouds
198,Sorland,NO,67.667,12.6934,50.07,61,0,8.05,clear sky
199,Hambantota,LK,6.1241,81.1185,81.55,83,100,20.65,heavy intensity rain
200,Teya,RU,60.3778,92.6267,47.8,93,100,0.25,light rain
201,Berbera,SO,10.4396,45.0143,94.14,47,79,13.82,broken clouds
202,Adrar,MR,20.5022,-10.0711,107.71,9,37,13.24,scattered clouds
203,Tasiilaq,GL,65.6145,-37.6368,33.96,78,100,26.15,overcast clouds
204,Petropavlovsk-Kamchatskiy,RU,53.0452,158.6483,32.59,74,20,3.04,few clouds
205,Orlik,RU,52.5178,99.825,41.49,98,100,3.56,light rain
206,Hamilton,US,39.1834,-84.5333,79.99,73,1,1.01,clear sky
207,Tynda,RU,55.1667,124.7167,35.2,98,100,9.51,overcast clouds
208,Merauke,ID,-8.4667,140.3333,77.9,84,100,15.86,overcast clouds
209,Kutulik,RU,53.3508,102.7839,47.34,97,100,9.42,light rain
210,Fuyang,CN,32.9,115.8167,71.6,53,96,11.92,light rain
211,Mandalgovi,MN,45.7625,106.2708,55.17,42,100,11.41,overcast clouds
212,Robertsport,LR,6.7533,-11.3686,84.92,73,50,8.41,light rain
213,Porbandar,IN,21.6422,69.6093,87.78,74,20,20.71,few clouds
214,Yashkul,RU,46.1711,45.3435,82.18,45,100,14.03,overcast clouds
215,Portland,US,45.5234,-122.6762,52.84,91,90,1.01,light rain
216,Sharjah,AE,25.3573,55.4033,102.36,49,0,10.74,clear sky
217,Nome,US,64.5011,-165.4064,46.47,53,1,10.36,clear sky
218,Floro,NO,61.5996,5.0328,62.67,82,20,16.11,few clouds
219,Jiwani,PK,25.05,61.7417,84.29,80,0,11.72,clear sky
220,Rafina,GR,38.0181,24.006,92.82,37,0,5.01,clear sky
221,Airai,TL,-8.9266,125.4092,58.82,94,76,2.06,broken clouds
222,Mitsamiouli,KM,-11.3847,43.2844,79.11,64,21,11.97,few clouds
223,Sarh,TD,9.1429,18.3923,98.51,34,20,6.91,few clouds
224,Port Elizabeth,ZA,-33.918,25.5701,83.07,27,56,12.86,broken clouds
225,Khatanga,RU,71.9667,102.5,32.52,99,100,6.71,overcast clouds
226,Hasaki,JP,35.7333,140.8333,68.4,72,100,19.89,overcast clouds
227,Esperance,AU,-33.8667,121.9,56.08,61,98,27.83,overcast clouds
228,Askiz,RU,53.1319,90.5264,56.41,84,7,7.29,light rain
229,Coihaique,CL,-45.5752,-72.0662,42.75,70,75,5.75,broken clouds
230,Zwedru,LR,6.0667,-8.1281,91.42,53,74,1.59,light rain
231,Suntar,RU,62.1444,117.6319,44.28,48,48,5.06,scattered clouds
232,Domingos Martins,BR,-20.3633,-40.6592,77.81,44,5,2.48,clear sky
233,Maniitsoq,GL,65.4167,-52.9,29.61,84,100,15.79,overcast clouds
234,Uncia,BO,-18.467,-66.5685,49.05,19,100,4.05,overcast clouds
235,Cabo San Lucas,MX,22.8909,-109.9124,78.06,71,0,2.35,clear sky
236,Kamen-Rybolov,RU,44.7481,132.0403,51.12,68,99,3.06,overcast clouds
237,Boyolangu,ID,-8.1181,111.8935,76.3,93,65,3.65,moderate rain
238,Nanortalik,GL,60.1432,-45.2371,35.42,84,100,16.73,light rain
239,Milledgeville,US,33.0801,-83.2321,84.07,65,1,0,clear sky
240,Soc Trang,VN,9.6033,105.98,78.76,90,100,5.14,overcast clouds
241,Shenjiamen,CN,29.9576,122.298,66.81,77,100,7.02,light rain
242,Labuhan,ID,-6.8844,112.2051,80.82,81,10,7.4,clear sky
243,Nyurba,RU,63.2842,118.3319,45.63,43,98,5.35,overcast clouds
244,Quelimane,MZ,-17.8786,36.8883,76.95,57,20,13.8,few clouds
245,Bilibino,RU,68.0546,166.4372,27.82,94,100,2.93,overcast clouds
246,Saint-Augustin,CA,51.226,-58.6502,40.6,30,86,15.17,overcast clouds
247,Intibuca,HN,14.3167,-88.1667,64.6,94,75,4.61,broken clouds
248,Goderich,CA,43.7501,-81.7165,66.52,45,97,11.5,overcast clouds
249,Pisco,PE,-13.7,-76.2167,66.25,77,40,9.22,scattered clouds
250,America Dourada,BR,-11.4553,-41.4361,87.03,30,40,7.38,scattered clouds
251,Lashio,MM,22.9333,97.75,73.22,89,69,2.86,moderate rain
252,Saint-Pierre,RE,-21.3393,55.4781,71.28,85,90,12.66,light rain
253,Caucaia,BR,-3.7361,-38.6531,88.07,65,40,11.79,scattered clouds
254,Kavieng,PG,-2.5744,150.7967,81.46,80,99,4.72,light rain
255,Russell,US,32.3502,-85.1999,82.11,51,1,1.45,clear sky
256,Basco,PH,20.4487,121.9702,83.97,77,18,8.75,few clouds
257,Oranjestad,AW,12.524,-70.027,85.95,70,75,25.32,broken clouds
258,Roma,US,43.2128,-75.4557,66.65,52,1,9.22,clear sky
259,Ilulissat,GL,69.2167,-51.1,42.82,33,75,20.71,broken clouds
260,Tikrit,IQ,34.6071,43.6782,95.09,11,54,7.74,broken clouds
261,Talnakh,RU,69.4865,88.3972,32.77,99,100,7.38,snow
262,La Mana,EC,-0.9333,-79.2167,83.41,74,53,1.61,broken clouds
263,Honningsvag,NO,70.9821,25.9704,38.44,70,18,12.8,few clouds
264,Neryungri,RU,56.6709,124.6491,34.34,100,100,0.98,light rain
265,Cabo Rojo,PR,18.0866,-67.1457,88.25,63,2,3.06,clear sky
266,Lasa,IT,46.6166,10.7002,52.54,100,100,4.12,overcast clouds
267,Itigi,TZ,-5.7,34.4833,77.16,35,0,6.69,clear sky
268,Wilmington,US,34.2257,-77.9447,86.99,51,1,4.61,clear sky
269,Honiara,SB,-9.4333,159.95,77.16,87,100,3,overcast clouds
270,Boende,CD,-0.2167,20.8667,83.37,65,94,2.73,overcast clouds
271,Grand-Santi,GF,4.25,-54.3833,76.39,97,100,3.09,overcast clouds
272,Constantine,DZ,36.365,6.6147,74.61,40,20,13.8,few clouds
273,Cherskiy,RU,68.75,161.3,40.77,59,2,7.63,clear sky
274,Yar-Sale,RU,66.8333,70.8333,42.78,40,99,12.86,overcast clouds
275,Kyzyl-Suu,KG,42.3414,78.0056,58.98,59,100,6.11,overcast clouds
276,Sola,VU,-13.8833,167.55,76.75,83,100,17.34,overcast clouds
277,Provideniya,RU,64.3833,-173.3,34.29,81,100,20.56,overcast clouds
278,Sambava,MG,-14.2667,50.1667,77.22,68,1,14.61,clear sky
279,Calabasas,US,34.1578,-118.6384,68.52,59,1,4.79,clear sky
280,Ojinaga,MX,29.5667,-104.4167,70.75,60,1,5.75,clear sky
281,Sisimiut,GL,66.9395,-53.6735,30.7,77,100,10.25,overcast clouds
282,Rangapara,IN,26.8167,92.65,81.12,83,94,7.05,overcast clouds
283,Mount Gambier,AU,-37.8333,140.7667,66.11,48,100,23.02,overcast clouds
284,Campos Gerais,BR,-21.235,-45.7586,68.72,46,100,8.97,overcast clouds
285,Mikhaylovka,RU,50.06,43.2379,63.5,79,100,9.64,light rain
286,Kamaishi,JP,39.2667,141.8833,61.72,86,88,5.93,overcast clouds
287,Simplicio Mendes,BR,-7.8539,-41.9103,91.6,29,91,6.67,overcast clouds
288,Sremska Mitrovica,RS,44.9764,19.6122,71.74,63,100,13.06,overcast clouds
289,Port Lincoln,AU,-34.7333,135.8667,60.4,89,100,18.43,light rain
290,Aklavik,CA,68.2191,-135.0107,30.92,85,100,13.27,overcast clouds
291,Huarmey,PE,-10.0681,-78.1522,67.57,82,38,4.56,scattered clouds
292,Bengkulu,ID,-3.8004,102.2655,78.75,87,41,3.62,light rain
293,Hibbing,US,47.4272,-92.9377,54.82,100,90,9.22,overcast clouds
294,Vrangel,RU,42.7297,133.0839,51.89,83,100,6.71,overcast clouds
295,Sawtell,AU,-30.3833,153.1,59.18,94,90,5.75,overcast clouds
296,Natagaima,CO,3.6206,-75.0941,80.71,68,67,2.51,broken clouds
297,Paamiut,GL,61.994,-49.6678,34.14,83,100,17.22,light rain
298,Mezen,RU,65.8522,44.24,34.7,96,100,10.25,moderate rain
299,Kenitra,MA,34.261,-6.5802,74.73,45,70,19.08,broken clouds
300,Jilavele,RO,44.7667,26.5333,81.18,46,61,10.16,broken clouds
301,Longfeng,CN,46.55,125.1167,51.31,40,43,9.26,scattered clouds
302,Makakilo City,US,21.3469,-158.0858,72.28,83,40,4.61,scattered clouds
303,Alofi,NU,-19.0595,-169.9187,69.69,100,96,0,light rain
304,Lompoc,US,34.6391,-120.4579,56.93,79,90,3.44,overcast clouds
305,Tianpeng,CN,30.9866,103.9393,73.87,63,100,3.87,overcast clouds
306,Nkan,GA,0.3833,9.7833,87.57,75,74,4.76,moderate rain
307,Te Anau,NZ,-45.4167,167.7167,32.9,95,23,1.1,few clouds
308,Carutapera,BR,-1.195,-46.02,86.61,64,100,9.8,overcast clouds
309,Saint George,US,37.1041,-113.5841,62.44,31,1,1.01,clear sky
310,Corralillo,CU,22.9819,-80.5856,80.46,64,29,14.58,scattered clouds
311,Stara Vyzhivka,UA,51.4376,24.44,64.81,48,99,3.31,overcast clouds
312,Vanimo,PG,-2.6741,141.3028,78.84,88,90,2.8,overcast clouds
313,Cayenne,GF,4.9333,-52.3333,79.09,91,75,9.06,moderate rain
314,Barcelona,ES,41.3888,2.159,83.01,68,20,11.01,few clouds
315,Piotrkow Trybunalski,PL,51.4055,19.7032,71.26,51,99,12.08,overcast clouds
316,Yanam,IN,16.7333,82.2167,86.4,50,100,4.45,overcast clouds
317,Vila,PT,42.0304,-8.1588,54.73,51,69,7.16,broken clouds
318,Tuatapere,NZ,-46.1333,167.6833,35.74,93,8,4.92,clear sky
319,Bani,DO,18.2833,-70.3333,83.75,56,82,11.39,broken clouds
320,Puerto Narino,CO,-3.7703,-70.3831,82.35,82,8,2.51,clear sky
321,Shingu,JP,33.7333,135.9833,63.91,95,100,4.23,overcast clouds
322,Fairbanks,US,64.8378,-147.7164,46.92,73,1,4.61,clear sky
323,Torbay,CA,47.6666,-52.7314,37.58,81,90,23.02,overcast clouds
324,Sterling,US,39.0062,-77.4286,67.77,79,90,1.01,overcast clouds
325,Vestmannaeyjar,IS,63.4427,-20.2734,49.19,66,75,18.41,broken clouds
326,Villa Carlos Paz,AR,-31.4241,-64.4978,61.88,44,1,21,clear sky
327,Soloneshnoye,RU,51.6544,84.3197,60.12,88,5,5.39,clear sky
328,Djibo,BF,14.1022,-1.6306,99.75,21,100,1.59,overcast clouds
329,Port Hedland,AU,-20.3167,118.5667,73.45,46,97,3.44,overcast clouds
330,Yulara,AU,-25.2406,130.9889,62.44,94,90,5.75,overcast clouds
331,Port Macquarie,AU,-31.4333,152.9167,57.88,79,50,1.88,scattered clouds
332,Canillo,AD,42.5833,1.6667,55.78,79,100,2.68,overcast clouds
333,Valdez,EC,1.2492,-78.9831,78.62,84,100,6.87,overcast clouds
334,Batagay,RU,67.6333,134.6333,46.58,34,3,4.83,clear sky
335,Kananga,CD,-5.8958,22.4178,87.44,32,79,4.97,broken clouds
336,Walvis Bay,NA,-22.9575,14.5053,85.15,33,0,9.13,clear sky
337,College,US,64.8569,-147.8028,46.9,66,20,3.44,few clouds
338,Xining,CN,36.6167,101.7667,54.23,48,97,9.31,overcast clouds
339,Comodoro Rivadavia,AR,-45.8667,-67.5,51.66,50,20,26.46,few clouds
340,Sao Filipe,CV,14.8961,-24.4956,74.07,76,1,12.33,clear sky
341,Ocean City,US,39.2776,-74.5746,64.38,69,100,8.99,overcast clouds
342,Davila,PH,18.4726,120.5763,83.5,75,3,2.48,clear sky
343,Calatayud,ES,41.3535,-1.6432,75.78,48,71,19.3,broken clouds
344,Olafsvik,IS,64.8945,-23.7142,45.09,74,19,8.84,few clouds
345,Kholmogory,RU,64.2229,41.656,41.11,92,100,7.54,overcast clouds
346,Shar,KZ,49.5886,81.0453,70.57,53,99,19.82,overcast clouds
347,Beringovskiy,RU,63.05,179.3167,32.74,92,100,11.72,overcast clouds
348,Solnechnyy,RU,50.7214,136.6319,42.53,98,100,2.75,moderate rain
349,Pochutla,MX,15.7432,-96.4661,85.82,58,3,1.48,clear sky
350,Kavaratti,IN,10.5669,72.642,84.13,73,77,10.94,broken clouds
351,Weiser,US,44.251,-116.9693,55.87,71,87,2.51,overcast clouds
352,Touros,BR,-5.1989,-35.4608,86.9,60,21,15.57,few clouds
353,Lata,PT,40.1629,-8.3327,69.71,51,87,11.59,overcast clouds
354,Saskylakh,RU,71.9167,114.0833,38.73,96,95,9.01,overcast clouds
355,Ambovombe,MG,-25.1667,46.0833,69.84,74,20,14.63,few clouds
356,Eston,CA,51.1501,-108.7514,46.53,91,100,10.98,moderate rain
357,Statesboro,US,32.4488,-81.7832,80.74,53,1,4.61,clear sky
358,Kanash,RU,55.5086,47.4956,67.59,68,100,8.12,overcast clouds
359,Pereslavl-Zalesskiy,RU,56.7393,38.8563,65.21,51,38,9.17,scattered clouds
360,Pangkalanbuun,ID,-2.6833,111.6167,75.69,97,11,3.13,few clouds
361,San Cristobal,VE,7.7669,-72.225,77.18,74,100,5.97,overcast clouds
362,Sicamous,CA,50.8331,-118.9856,63.57,94,100,1.25,overcast clouds
363,Toora-Khem,RU,52.4675,96.11,47.53,91,100,7.05,overcast clouds
364,Praxedis Guerrero,MX,31.3667,-106.0167,75.56,46,0,2.95,clear sky
365,Emborion,GR,40.4833,21.55,88.32,39,0,4.07,clear sky
366,Tineo,ES,43.3376,-6.4145,56.25,51,89,6.55,overcast clouds
367,Leshukonskoye,RU,64.8989,45.7622,39.15,92,100,8.88,overcast clouds
368,Dennery,LC,13.8996,-60.8879,86.13,71,40,18.7,scattered clouds
369,Guerrero Negro,MX,27.9769,-114.0611,60.39,85,64,6.44,broken clouds
370,Marawi,PH,7.9986,124.2928,74.64,93,93,0.96,light rain
371,Ajdabiya,LY,30.7554,20.2263,94.32,10,0,3.71,clear sky
372,Bambous Virieux,MU,-20.3428,57.7575,72.21,69,75,14.47,broken clouds
373,Dzerzhinskoye,RU,56.8344,95.2283,53.06,61,100,8.5,overcast clouds
374,Mercedes,AR,-34.6515,-59.4307,58.86,65,10,10.85,clear sky
375,Halifax,CA,44.6453,-63.5724,53.22,46,0,1.99,clear sky
376,Ahuimanu,US,21.4447,-157.8378,73.45,88,1,5.75,clear sky
377,Grenada,ES,37.1882,-3.6067,76.77,32,20,1.01,few clouds
378,Avera,US,33.194,-82.5271,84.67,51,29,1.52,scattered clouds
379,Peniche,PT,39.3558,-9.3811,70.61,72,16,16.93,few clouds
380,Shimoda,JP,34.6667,138.95,65.16,86,100,2.57,overcast clouds
381,Cockburn Town,TC,21.4612,-71.1419,82.36,65,40,11.5,scattered clouds
382,Bida,NG,9.0833,6.0167,99.61,38,50,3.49,scattered clouds
383,Poum,NC,-20.2333,164.0167,73.58,58,3,19.93,clear sky
384,Isilkul,RU,54.9109,71.2728,81.79,50,65,4.92,broken clouds
385,Irbeyskoye,RU,55.6428,95.4522,50.52,81,27,6.11,scattered clouds
386,Lokosovo,RU,61.1333,74.8167,59.52,41,100,7.58,overcast clouds
387,Beloha,MG,-25.1667,45.05,70.72,66,36,10.33,scattered clouds
388,Vao,NC,-22.6667,167.4833,70.38,64,1,19.71,clear sky
389,Kamwenge,UG,0.1866,30.4539,71.46,76,84,2.82,light rain
390,Puerto Del Rosario,ES,28.5004,-13.8627,74.88,60,20,21.85,few clouds
391,Isangel,VU,-19.55,169.2667,69.93,75,77,9.78,broken clouds
392,Jalu,LY,29.0331,21.5482,95.9,7,0,9.08,clear sky
393,Rabat,MA,33.9911,-6.8401,74.05,53,0,20.27,clear sky
394,Merano,IT,46.6682,11.1595,61.84,98,100,1.1,light rain
395,Kaeo,NZ,-35.1,173.7833,55.33,73,98,14.16,overcast clouds
396,Nortelandia,BR,-14.4547,-56.8028,75.02,63,97,4.92,overcast clouds
397,Casper,US,42.8666,-106.3131,53.51,48,1,24,clear sky
398,Mayahi,NE,13.9553,7.6712,108.19,5,70,9.24,broken clouds
399,Lucapa,AO,-8.4192,20.7447,84.04,27,11,5.88,few clouds
400,Sampit,ID,-2.5333,112.95,77.95,89,85,2.82,overcast clouds
401,Tromso,NO,69.6496,18.957,47.05,45,0,14.97,clear sky
402,Puerto Escondido,MX,15.85,-97.0667,83.23,78,1,5.75,clear sky
403,Starkville,US,33.4504,-88.8184,79.95,65,83,3.42,broken clouds
404,Srednekolymsk,RU,67.45,153.6833,45.61,55,0,7.78,clear sky
405,Pokhara,NP,28.2333,83.9833,78.44,45,21,5.61,few clouds
406,Uyuni,BO,-20.4597,-66.825,45.46,10,21,8.28,few clouds
407,Cedar City,US,37.6775,-113.0619,47.39,45,1,0,clear sky
408,Dombas,NO,62.0696,9.1235,43.81,94,100,8.46,overcast clouds
409,Moyo,UG,3.6609,31.7247,76.33,75,90,4.9,overcast clouds
410,Coquimbo,CL,-29.9533,-71.3436,56.93,59,0,2.62,clear sky
411,Nikki,BJ,9.9401,3.2108,102.74,24,20,7.25,few clouds
412,Vilyuysk,RU,63.7553,121.6247,47.05,62,98,2.98,overcast clouds
413,Sadiqabad,PK,28.3062,70.1307,105.58,14,4,8.55,clear sky
414,Pringsewu,ID,-5.3582,104.9744,75.18,96,27,2.04,scattered clouds
415,Kimbe,PG,-5.5502,150.1429,78.37,87,100,5.97,overcast clouds
416,Hay River,CA,60.8156,-115.7999,35.58,87,90,12.66,overcast clouds
417,Sakakah,SA,29.9697,40.2064,90.97,15,0,19.22,clear sky
418,Ust-Kuyga,RU,70.0167,135.6,36,74,11,0.83,few clouds
419,Bastia,FR,42.6667,9.3333,65.53,91,75,5.01,light rain
420,Terralba,IT,39.7192,8.6392,71.89,74,61,15.23,broken clouds
421,Bandarbeyla,SO,9.4942,50.8122,83.3,68,5,27.76,clear sky
422,Puerto Ayacucho,VE,5.6639,-67.6236,82.85,78,97,1.16,overcast clouds
423,Aksaray,TR,38.3726,34.0254,71.19,36,1,13.82,clear sky
424,Dunedin,NZ,-45.8742,170.5036,42.8,84,29,3,scattered clouds
425,Salaga,GH,8.5508,-0.5188,100.24,31,23,6.15,few clouds
426,Lodja,CD,-3.4833,23.4333,88.7,43,75,2.44,broken clouds
427,Pimenta Bueno,BR,-11.6725,-61.1936,74.01,86,100,4.7,overcast clouds
428,Thompson,CA,55.7435,-97.8558,50.16,71,75,3.44,broken clouds
429,Uvira,CD,-3.4067,29.1458,77.38,75,48,9.95,light rain
430,Watertown,US,42.3709,-71.1828,66.69,48,75,5.01,broken clouds
431,Tapes,BR,-30.6733,-51.3958,57.85,63,91,17.38,overcast clouds
432,Kapit,MY,2.0167,112.9333,74.59,91,52,2.57,broken clouds
433,Kantang,TH,7.4054,99.5156,80.51,84,93,3.71,overcast clouds
434,Ostrovnoy,RU,68.0531,39.5131,36.45,64,96,16.22,overcast clouds
435,Bumba,CD,2.1833,22.4667,90.7,44,55,2.48,broken clouds
436,Dubbo,AU,-32.25,148.6167,53.73,87,100,11.5,overcast clouds
437,Gondanglegi,ID,-7.7479,112.0132,75.63,93,55,7.87,light rain
438,Oranjemund,NA,-28.55,16.4333,68.25,60,100,6.98,overcast clouds
439,Marsh Harbour,BS,26.5412,-77.0636,74.64,63,0,9.91,clear sky
440,Sicuani,PE,-14.2694,-71.2261,42.46,77,98,2.91,overcast clouds
441,Nishihara,JP,26.1842,127.7558,78.08,92,75,7.4,broken clouds
442,Cervo,ES,43.6702,-7.4101,62.19,66,92,17.81,overcast clouds
443,Roald,NO,62.5833,6.1333,59.92,87,40,13.8,scattered clouds
444,Sweetwater,US,25.7634,-80.3731,83.01,56,40,1.99,scattered clouds
445,Yerbogachen,RU,61.2767,108.0108,46.33,38,35,5.95,scattered clouds
446,Shakawe,BW,-18.3667,21.85,80.17,21,0,7.96,clear sky
447,Lasem,ID,-6.6922,111.4527,79.99,80,16,5.23,few clouds
448,Mimongo,GA,-1.6195,11.6068,81.34,77,62,2.28,moderate rain
449,Castellana Grotte,IT,40.8864,17.1655,88.41,32,10,18.37,clear sky
450,Luchegorsk,RU,46.4764,134.2569,48.65,95,100,3.38,overcast clouds
451,Podgorodnyaya Pokrovka,RU,51.8281,54.9874,93.33,29,1,6.42,clear sky
452,Krasnogorskoye,RU,52.2953,86.1979,60.1,94,11,6.46,light rain
453,Maromitsa,RU,59.8683,48.0123,63.66,48,14,12.95,few clouds
454,Nouakchott,MR,18.0858,-15.9785,82.33,72,44,12.73,scattered clouds
455,Antofagasta,CL,-23.65,-70.4,58.28,64,92,4.12,overcast clouds
456,Taoudenni,ML,22.6783,-3.9836,111.81,9,6,1.59,clear sky
457,Kenai,US,60.5544,-151.2583,43.14,75,1,5.75,clear sky
458,Fort Frances,CA,48.5999,-93.4003,55.62,64,97,3,overcast clouds
459,Sechura,PE,-5.5569,-80.8222,70.14,78,31,8.37,scattered clouds
460,Amparafaravola,MG,-17.5833,48.2167,65.25,77,0,2.08,clear sky
461,Aykhal,RU,66,111.5,41.81,56,12,5.59,few clouds
462,Malazgirt,TR,39.1427,42.5401,62.33,54,100,2.28,moderate rain
463,Diffa,NE,13.3154,12.6113,106.81,5,65,17.36,broken clouds
464,Dzaoudzi,YT,-12.7887,45.2699,80.49,65,0,13.8,clear sky
465,Maldonado,UY,-34.6667,-54.9167,56.59,75,63,16.51,broken clouds
466,Khani,GE,41.9563,42.9566,58.57,86,82,4.32,broken clouds
467,Jiangyou,CN,31.7667,104.7167,66.51,69,78,0.98,light rain
468,Bathsheba,BB,13.2167,-59.5167,86.61,67,20,18.95,few clouds
469,Akyab,MM,20.15,92.9,84.88,78,94,28.77,light rain
470,Half Moon Bay,US,37.4636,-122.4286,55,92,90,6.91,overcast clouds
471,Varkkallai,IN,8.7341,76.7067,85.78,84,100,8.03,overcast clouds
472,Sheridan,US,44.8333,-106.9173,61.18,31,1,7,clear sky
473,Huangnihe,CN,43.5583,128.0239,42.39,61,90,4.09,overcast clouds
474,Dingle,PH,10.9995,122.6711,79.88,80,8,2.06,clear sky
475,Beinamar,TD,8.6698,15.3813,104.13,15,91,5.57,overcast clouds
476,Anadyr,RU,64.75,177.4833,39.7,69,0,11.07,clear sky
477,Komsomolskiy,UZ,40.4272,71.7189,78.22,31,100,4.61,overcast clouds
478,Lavrentiya,RU,65.5833,-171,30.04,85,95,13.09,overcast clouds
479,Fairlie,GB,55.756,-4.8556,53.51,87,100,11.01,light rain
480,Xingyi,CN,24.1877,102.817,63.84,86,100,3.83,overcast clouds
481,Carahue,CL,-38.7,-73.1667,52,87,100,4.81,overcast clouds
482,Port Blair,IN,11.6667,92.75,82.83,82,100,20.89,overcast clouds
483,Tawang,IN,27.5833,91.8667,55.62,93,70,0.87,broken clouds
484,Cururupu,BR,-1.8283,-44.8683,88.29,55,79,7.05,broken clouds
485,Torquay,GB,50.4638,-3.5143,54.59,87,49,5.99,scattered clouds
486,Dukat,RU,62.55,155.55,25.84,96,30,1.23,scattered clouds
487,Lumding,IN,25.7535,93.1732,78.35,92,77,2.55,moderate rain
488,Vila Franca Do Campo,PT,37.7167,-25.4333,66.61,57,100,6.08,overcast clouds
489,Baykit,RU,61.67,96.37,42.35,94,100,7.49,overcast clouds
490,Baruun-Urt,MN,46.6806,113.2792,41.83,53,100,10.27,overcast clouds
491,Cayon,KN,17.35,-62.7333,85.53,70,20,16.11,few clouds
492,Thinadhoo,MV,0.5333,72.9333,84.85,71,94,16.06,overcast clouds
493,Broome,US,42.2506,-75.833,65.7,60,100,1.99,overcast clouds
494,Pangody,RU,65.85,74.4859,42.33,39,80,17.22,broken clouds
495,Terra Nova,BR,-12.3667,-40.6667,81.18,40,35,4.61,scattered clouds
496,Maibong,IN,25.3,93.1667,78.69,85,45,1.34,moderate rain
497,Qui Nhon,VN,13.7667,109.2333,80.82,84,100,0.76,overcast clouds
498,Bud,US,39.447,-86.1758,80.58,68,100,5.66,overcast clouds
499,Fukagawa,JP,43.7081,142.0392,51.85,95,100,0.92,overcast clouds
500,Khandyga,RU,62.6667,135.6,44.33,79,100,6.98,overcast clouds
501,Pastavy,BY,55.1168,26.8326,60.39,54,30,11.07,scattered clouds
502,Karratha,AU,-20.7377,116.8463,72.88,53,80,9.51,broken clouds
503,Pahrump,US,36.2083,-115.9839,66.18,30,0,1.01,clear sky
504,Buriti Bravo,BR,-5.8372,-43.8336,87.91,49,59,5.03,broken clouds
505,Novikovo,RU,51.1537,37.8879,67.89,52,97,8.88,moderate rain
506,Tshikapa,CD,-6.4167,20.8,90.81,29,57,3.85,broken clouds
507,Richards Bay,ZA,-28.783,32.0377,71.15,67,0,13.85,clear sky
508,Husavik,IS,66.0449,-17.3389,44.51,70,98,6.6,overcast clouds
509,Creel,MX,27.75,-107.6333,57.24,31,1,2.06,clear sky
510,Spassk,RU,52.747,87.7545,57.58,98,99,3,light rain
511,Dudinka,RU,69.4058,86.1778,31.44,98,100,16.4,snow
512,Saint-Francois,FR,46.4154,3.9054,63.84,55,20,13.8,few clouds
513,Craig,US,40.5153,-107.5464,42.17,65,1,3.44,clear sky
514,Broken Hill,AU,-31.95,141.4333,64.38,44,0,20.33,clear sky
515,Atherton,GB,53.5237,-2.4935,57.22,69,100,7,overcast clouds
516,Salinas,US,36.6777,-121.6555,56.05,87,90,0,overcast clouds
517,Pascagoula,US,30.3658,-88.5561,83.55,68,1,6.4,clear sky
518,Grand Gaube,MU,-20.0064,57.6608,72.37,77,8,5.01,light rain
519,Aksehir,TR,38.3575,31.4164,75.47,24,34,9.42,scattered clouds
520,Defiance,US,41.3334,-84.45,70.09,88,90,5.75,overcast clouds
521,Okha,RU,53.5739,142.9478,35.13,95,100,14.94,light rain
522,Houma,US,29.5958,-90.7195,80.01,78,40,11.5,scattered clouds
523,Naze,JP,28.3667,129.4833,71.87,86,100,7.49,overcast clouds
524,Acajutla,SV,13.5928,-89.8275,84.79,64,94,3.85,overcast clouds
525,Dunmore Town,BS,25.5,-76.65,75.29,65,55,12.44,broken clouds
526,Tateyama,JP,34.9833,139.8667,69.03,80,100,12.55,overcast clouds
527,Darnah,LY,32.767,22.6367,74.64,48,0,9.08,clear sky
528,Manggar,ID,-2.8833,108.2667,82.78,76,23,7.16,few clouds
529,Kuytun,RU,54.3419,101.5036,49.12,88,100,11.52,light rain
530,Omsk,RU,55,73.4,78.69,27,0,6.71,clear sky
531,Pangnirtung,CA,66.1451,-65.7125,21.2,79,75,8.05,broken clouds
532,Hatillo,PR,18.4863,-66.8254,88.38,68,3,11.41,clear sky
533,Saldanha,ZA,-33.0117,17.9442,68.05,79,100,7.14,overcast clouds
534,Shizunai,JP,42.3339,142.3669,53.02,91,92,3.8,overcast clouds
535,Kabanjahe,ID,3.1001,98.4908,66.96,97,97,2.51,overcast clouds
536,Danielskuil,ZA,-28.1887,23.5395,65.64,33,2,12.03,clear sky
537,Santa Cruz,BO,-17.8,-63.1667,67.46,42,75,11.5,broken clouds
538,Feijo,BR,-8.1642,-70.3536,73.27,98,100,3.65,overcast clouds
539,Roebourne,AU,-20.7833,117.1333,72.61,51,95,9.44,overcast clouds
540,Aksarka,RU,66.5606,67.7975,45.23,34,65,9.69,broken clouds
541,Tiarei,PF,-17.5333,-149.3333,77.02,75,58,5.17,light rain
542,Eskilstuna,SE,59.3666,16.5077,60.04,80,100,3,overcast clouds
543,Sapele,NG,5.8941,5.6767,92.41,52,82,4.74,broken clouds
544,Champerico,GT,14.3,-91.9167,89.73,71,100,1.92,overcast clouds
545,Troyes,FR,48.3333,4.0833,59.77,72,75,17.27,broken clouds
546,Sur,OM,22.5667,59.5289,98.73,37,0,11.14,clear sky
547,Pictou,CA,45.6834,-62.7153,52.59,47,3,12.12,clear sky
548,Mulhouse,FR,47.6667,7.4167,68.88,54,75,8.99,broken clouds
549,Swellendam,ZA,-34.0226,20.4417,66.58,46,100,1.5,overcast clouds
550,Chapais,CA,49.7834,-74.8492,46.18,29,44,6.49,scattered clouds
551,Vidim,RU,56.4088,103.1106,44.31,98,100,5.26,overcast clouds
552,Tobol,KZ,52.6844,62.5794,90.54,21,62,9.62,broken clouds
553,Duncan,US,34.5023,-97.9578,68.22,94,90,9.22,overcast clouds
554,Bontang,ID,0.1333,117.5,81.81,81,46,6.4,scattered clouds
555,Bolotnoye,RU,55.6717,84.3981,62.38,64,16,7.7,few clouds
556,Constitucion,CL,-35.3333,-72.4167,56.59,64,0,4.5,clear sky
557,Huilong,CN,31.8111,121.655,74.03,78,75,10.71,broken clouds
558,Niksic,ME,42.7731,18.9445,80.76,56,21,8.46,few clouds
559,Asau,RO,46.4333,26.4,69.4,51,53,6.78,broken clouds
560,Mount Isa,AU,-20.7333,139.5,60.57,59,10,0,clear sky
561,Okhotsk,RU,59.3833,143.3,35.02,85,100,3.11,overcast clouds
562,Kalabo,ZM,-14.97,22.6814,80.37,25,2,9.78,clear sky
563,Vostok,RU,46.4856,135.8833,42.85,98,100,1.21,moderate rain
564,Minas De Barroteran,MX,27.6333,-101.2833,74.91,77,58,6.8,broken clouds
565,Namwala,ZM,-15.7504,26.4384,73.38,39,86,7.14,overcast clouds
566,Cam Ranh,VN,11.9214,109.1591,82.36,86,40,7.18,scattered clouds
567,Dukhovshchina,RU,55.1919,32.4111,59.49,57,83,7.96,broken clouds
568,Alice Springs,AU,-23.7,133.8833,67.55,36,7,9.91,clear sky
569,Nichinan,JP,31.6,131.3667,66.76,91,99,4.18,overcast clouds
570,Flinders,AU,-34.5833,150.8552,60.39,92,78,1.01,broken clouds
571,Rapid City,US,44.0805,-103.231,63.14,39,1,3,clear sky
572,Ziri,SI,46.0422,14.1072,55.29,99,100,3.85,light rain
573,Udachnyy,RU,66.4167,112.4,44.67,48,12,6.8,few clouds
574,Yarega,RU,63.4354,53.5765,51.17,94,100,4.79,overcast clouds
575,Mamaku,NZ,-38.1,176.0833,49.96,74,94,10.27,overcast clouds
576,Corinto,GR,37.9407,22.9573,93.83,30,0,1.01,clear sky
577,Onalaska,US,43.8844,-91.2351,75.29,73,20,11.5,few clouds
578,Menongue,AO,-14.6585,17.691,78.66,25,0,8.32,clear sky
579,Itupeva,BR,-23.1531,-47.0578,69.01,40,0,6.55,clear sky
580,Mushie,CD,-3.0167,16.9,90.54,48,97,5.03,overcast clouds
581,Juneau,US,58.3019,-134.4197,44.22,99,77,3.36,broken clouds
582,San Pedro,PH,14.35,121.0167,85.23,75,20,3.76,few clouds
583,Banda Aceh,ID,5.5577,95.3222,82.2,80,100,12.35,overcast clouds
584,Samarai,PG,-10.6167,150.6667,79.95,71,86,16.4,overcast clouds
585,Kalmunai,LK,7.4167,81.8167,81.9,77,100,13.58,overcast clouds
586,Mwene-Ditu,CD,-7,23.45,83.5,33,99,4.92,overcast clouds
587,Markova,UA,48.6758,24.4138,65.79,54,94,8.68,overcast clouds
588,La Palma,US,33.8464,-118.0467,72.1,77,1,0,clear sky
589,Jiblah,YE,13.9216,44.1467,76.95,27,81,7.23,broken clouds
590,Bagado,CO,5.4116,-76.4152,81.99,82,71,2.71,broken clouds
591,Kurchum,KZ,48.5722,83.6542,71.96,52,63,12.55,broken clouds
592,Ossora,RU,59.2353,163.0719,31.96,87,22,7.11,few clouds
593,Morant Bay,JM,17.8815,-76.4093,85.62,72,92,11.07,overcast clouds
594,Tocache,PE,-8.1842,-76.5125,73.36,91,79,1.05,broken clouds
595,The Valley,AI,18.217,-63.0578,85.1,70,20,18.41,few clouds
596,Salalah,OM,17.0151,54.0924,87.89,70,40,11.5,scattered clouds
597,Brzesko,PL,49.9691,20.6061,70.84,51,100,3,overcast clouds
598,Ceres,US,37.5949,-120.9577,60.21,71,1,0,clear sky
599,San Rafael,AR,-34.6177,-68.3301,57.47,28,0,3.8,clear sky
600,Limon,CR,10,-83.0333,75.09,100,75,5.75,broken clouds
601,Mariental,NA,-24.6333,17.9667,78.89,18,51,8.01,broken clouds
602,Biak,ID,-0.9131,122.8766,76.57,81,99,4.81,overcast clouds
603,Shenzhen,CN,22.5455,114.0683,86.22,71,100,4.09,overcast clouds
604,Bicaz Chei,RO,46.8167,25.8833,71.78,42,10,2.08,clear sky
605,Prainha,BR,-1.8,-53.48,85.1,66,94,4.07,overcast clouds
606,Dawei,MM,14.0833,98.2,78.31,93,59,8.12,broken clouds
607,Natal,BR,-5.795,-35.2094,86.65,61,75,13.47,broken clouds
608,Dargaville,NZ,-35.9333,173.8833,53.87,76,95,9.55,overcast clouds
609,Tyrma,RU,50.0833,132.1667,43.43,95,96,3.44,light rain
610,Melenki,RU,55.3343,41.6295,66.74,51,100,7.31,overcast clouds
611,Lianzhou,CN,24.7811,112.3825,66.65,97,94,2.62,overcast clouds
612,Flin Flon,CA,54.7682,-101.865,48.04,80,90,9.82,overcast clouds
613,Carroll,US,39.5501,-77.0164,64.72,80,90,1.01,overcast clouds
614,Omboue,GA,-1.5746,9.2618,82.81,77,96,9.37,light rain
615,Ahipara,NZ,-35.1667,173.1667,56.1,68,100,14.65,overcast clouds
616,Karacakoy,TR,41.4029,28.3834,80.64,70,96,12.5,overcast clouds
617,Paragominas,BR,-2.9667,-47.4833,86.31,62,96,4.43,light rain
618,Kushmurun,KZ,52.4503,64.6311,89.24,25,36,7.36,scattered clouds
619,Ternate,ID,0.8,127.4,81.97,76,100,5.1,overcast clouds
620,Namatanai,PG,-3.6667,152.4333,79.32,87,100,5.95,moderate rain
621,Krasnoselkup,RU,65.7,82.4667,38.57,57,43,23.73,scattered clouds
622,Santa Maria,BR,-29.6842,-53.8069,56.37,68,9,11.32,clear sky
623,Ribas Do Rio Pardo,BR,-20.4431,-53.7592,65.73,33,99,7.09,overcast clouds
624,Pilar,BR,-9.5972,-35.9567,84.13,64,78,8.08,broken clouds
625,Garachine,PA,8.0647,-78.3628,82.38,78,66,1.39,broken clouds
626,Puerto Madryn,AR,-42.7692,-65.0385,56.71,54,100,19.66,overcast clouds
627,Savannakhet,LA,16.566,104.751,76.17,89,94,5.03,moderate rain
628,Two Rivers,US,44.1539,-87.5693,60.55,99,90,3,overcast clouds
629,Rawson,AR,-43.3002,-65.1023,59.7,47,100,22.84,overcast clouds
630,Noumea,NC,-22.2763,166.4572,70,99,0,9.44,clear sky
631,Arcata,US,40.8665,-124.0828,51.64,69,90,1.99,overcast clouds
632,Eyl,SO,7.9803,49.8164,90.84,45,31,20.71,scattered clouds
633,Sydney,AU,-33.8679,151.2073,60.1,92,75,3,broken clouds
634,Margate,GB,51.3813,1.3862,58.17,53,93,7,overcast clouds
635,Namibe,AO,-15.1961,12.1522,82.36,54,0,11.01,clear sky
636,Kruisfontein,ZA,-34.0033,24.7314,82.02,20,100,11.54,overcast clouds
637,Batemans Bay,AU,-35.7167,150.1833,54.91,95,99,4.25,overcast clouds
638,Makurdi,NG,7.7411,8.5121,97.23,42,92,3.47,overcast clouds
639,Adana,TR,36.985,35.2881,90.12,32,0,16.11,clear sky
640,Hobe Sound,US,27.0595,-80.1364,82.98,53,20,7.92,few clouds
641,Soyo,AO,-6.1349,12.3689,83.68,72,92,12.17,overcast clouds
642,Vila Velha,BR,-20.3297,-40.2925,84.15,66,0,13,clear sky
643,Maku,IR,39.2911,44.4521,61.59,60,100,9.33,overcast clouds
644,Krasnoarmeysk,RU,51.0239,45.6969,73.15,59,100,12.1,overcast clouds
645,Buchanan,LR,5.8808,-10.0467,84.96,74,50,7.63,moderate rain
646,Abu Dhabi,AE,24.4667,54.3667,98.71,65,0,16.49,clear sky
647,Radhanpur,IN,23.8333,71.6,97.48,26,0,8.77,clear sky
648,Skibbereen,IE,51.55,-9.2667,57,62,16,19.44,few clouds
649,Augusto Correa,BR,-1.0217,-46.635,87.17,62,100,7.38,overcast clouds
650,Sayat,TM,38.7839,63.8803,96.67,8,0,3.2,clear sky
651,Solenzo,BF,12.1833,-4.0833,103.08,22,89,4.21,overcast clouds
652,Itajuba,BR,-22.4256,-45.4528,71.76,57,93,3.91,overcast clouds
653,Santo Antonio Do Ica,BR,-3.1022,-67.9397,85.21,72,58,2.53,broken clouds
654,Eenhana,NA,-17.4667,16.3333,82.15,19,0,8.81,clear sky
655,Oyama,JP,36.3,139.8,73.58,52,100,8.43,overcast clouds
656,Sungaipenuh,ID,-2.0833,101.3833,66.92,97,99,2.17,overcast clouds
657,Ust-Nera,RU,64.5667,143.2,42.21,70,100,2.06,overcast clouds
658,Touho,NC,-20.7833,165.2333,67.59,73,0,7.31,clear sky
659,Humaita,BR,-7.5061,-63.0208,83.61,73,98,3.87,light rain
660,Pitimbu,BR,-7.4706,-34.8086,84.79,69,77,13.33,broken clouds
661,Beitbridge,ZW,-22.2167,30,75.9,32,0,6.55,clear sky
662,Amahai,ID,-3.3333,128.9167,77.13,86,100,2.33,overcast clouds
663,Tripoli,LY,32.8752,13.1875,82.87,48,99,9.35,overcast clouds
664,Santarem,BR,-2.4431,-54.7083,82.53,89,75,8.05,broken clouds
665,Pechora,RU,65.1472,57.2244,51.21,26,100,8.9,overcast clouds
666,Nalut,LY,30.3333,10.85,105.64,8,80,9.42,broken clouds
667,Sharkan,RU,57.2989,53.8712,71.17,65,92,9.13,overcast clouds
668,Buraydah,SA,26.326,43.975,106.25,6,21,18.57,few clouds
669,Gayny,RU,60.3071,54.3241,62.94,67,86,7.99,overcast clouds
670,Orbetello,IT,42.4408,11.2196,75.38,84,100,15.59,overcast clouds
671,Ulladulla,AU,-35.35,150.4667,58.87,93,86,4.94,overcast clouds
672,Mareeba,AU,-17,145.4333,66.92,99,78,1.88,broken clouds
673,Lesosibirsk,RU,58.2358,92.4828,52.23,88,100,10.83,light rain
674,Can,TR,40.0333,27.0524,83.05,50,0,10.45,clear sky
675,Kismayo,SO,-0.3582,42.5454,80.85,69,8,19.15,clear sky
676,Cabedelo,BR,-6.9811,-34.8339,84.87,71,57,12.26,broken clouds
677,Zambezi,ZM,-13.5432,23.1047,80.29,25,0,9.66,clear sky
678,Turukhansk,RU,65.8167,87.9833,38.86,68,100,19.13,overcast clouds
679,Belyy Yar,RU,53.6039,91.3903,66.09,67,0,6.69,clear sky
680,Itarema,BR,-2.9248,-39.9167,85.71,64,86,14.16,overcast clouds
681,Kendari,ID,-3.945,122.4989,76.17,90,95,1.41,overcast clouds
682,Leh,IN,34.1667,77.5833,45.25,38,40,4.59,scattered clouds
683,Tongzi,CN,28.7829,105.0877,65.55,82,47,2.71,light rain
684,Aitape,PG,-3.1374,142.3475,79.63,85,96,2.06,heavy intensity rain
685,Yasnyy,RU,51.0333,59.8742,87.57,24,4,3.4,clear sky
686,Haines Junction,CA,60.7522,-137.5108,40.95,81,100,4.61,moderate rain
687,Sao Joao Da Barra,BR,-21.6403,-41.0511,82.49,63,91,11.03,overcast clouds
688,Brewster,US,41.3973,-73.6171,65.08,66,90,1.99,overcast clouds
689,Abalak,RU,58.1286,68.5944,72.63,51,5,4.7,clear sky
690,Murindo,CO,6.9848,-76.7544,82.65,80,74,2.51,broken clouds
691,Vallenar,CL,-28.5708,-70.7581,69.49,21,16,1.81,few clouds
692,Sande,DE,53.5049,8.0142,59.18,91,100,10.29,light rain
693,Kachiry,KZ,53.0675,76.1036,78.94,39,100,7.52,overcast clouds
694,Inta,RU,66.0317,60.1659,48.67,29,100,11.39,overcast clouds
695,Belaya Gora,RU,68.5333,146.4167,44.8,62,46,5.79,scattered clouds
696,Sabzevar,IR,36.2126,57.6819,87.08,16,40,16.11,scattered clouds
697,Terrace,CA,54.5163,-128.6035,48.11,87,75,0,broken clouds
698,Port Hawkesbury,CA,45.6169,-61.3485,50.92,65,20,13,few clouds
699,Kibara,TZ,-2.15,33.45,77.88,58,8,7.85,clear sky
700,Kroya,ID,-7.6331,109.2461,79.2,87,86,6.62,overcast clouds
701,Gaptsakh,RU,41.4517,47.9303,69.6,50,89,1.5,overcast clouds
702,Namanga,KE,-2.5433,36.7905,74.17,51,64,8.25,broken clouds
703,Lagunas,PE,-5.2269,-75.6753,76.59,92,98,0.09,overcast clouds
704,Praia,CV,14.9215,-23.5087,81.14,54,20,20.71,few clouds
705,Bowen,AU,-20.0167,148.2333,69.73,78,70,13.8,broken clouds
